[
  {
    "rank": 1,
    "place_id": "ChIJgdBtJhRDk4ARGXWdlhwARgM",
    "name": "Coalinga Car Wash",
    "address": "105 S 5th St, Coalinga, CA 93210, USA",
    "city": "Coalinga",
    "state": "CA",
    "zip": "93210",
    "phone": null,
    "website": null,
    "rating": 2.9,
    "review_count": 14,
    "lat": 36.1390733,
    "lng": -120.3587851
  },
  {
    "rank": 2,
    "place_id": "ChIJsxUOSHRDk4ARdCH46vJmoVs",
    "name": "GASO Auto Detail",
    "address": "Coalinga, CA 93210, USA",
    "city": "Coalinga",
    "state": "CA",
    "zip": "93210",
    "phone": "(559) 961-6438",
    "website": null,
    "rating": 5,
    "review_count": 9,
    "lat": 36.1466026,
    "lng": -120.3657666
  },
  {
    "rank": 3,
    "place_id": "ChIJRcPjJuZDk4ARxjQ_pQAODms",
    "name": "Bomb Detail",
    "address": "155 E Glenn Ave, Coalinga, CA 93210, USA",
    "city": "Coalinga",
    "state": "CA",
    "zip": "93210",
    "phone": "(805) 819-2351",
    "website": "http://bombdetail.com/",
    "rating": 4.6,
    "review_count": 10,
    "lat": 36.139184,
    "lng": -120.3580082
  },
  {
    "rank": 4,
    "place_id": "ChIJz4IEpkNDk4AR3R_MbZX5feg",
    "name": "Express Car Wash",
    "address": "Coalinga, CA 93210, USA",
    "city": "Coalinga",
    "state": "CA",
    "zip": "93210",
    "phone": null,
    "website": null,
    "rating": null,
    "review_count": null,
    "lat": 36.1367233,
    "lng": -120.3629842
  },
  {
    "rank": 5,
    "place_id": "ChIJJ4zzmENDk4AR6KUOEeuaBT8",
    "name": "Chevron Coalinga",
    "address": "307 W Elm Ave, Coalinga, CA 93210, USA",
    "city": "Coalinga",
    "state": "CA",
    "zip": "93210",
    "phone": "(559) 935-5203",
    "website": "https://www.chevronwithtechron.com/station",
    "rating": 4,
    "review_count": 24,
    "lat": 36.1370635,
    "lng": -120.3624826
  },
  {
    "rank": 6,
    "place_id": "ChIJV6LNZEJDk4ARTBdoe4HzOrw",
    "name": "Glory \"B's\" Launderland",
    "address": "183 W Polk St, Coalinga, CA 93210, USA",
    "city": "Coalinga",
    "state": "CA",
    "zip": "93210",
    "phone": "(559) 935-2593",
    "website": null,
    "rating": 3.5,
    "review_count": 28,
    "lat": 36.1356733,
    "lng": -120.3653852
  },
  {
    "rank": 7,
    "place_id": "ChIJe7Ly4ItDk4ARHTtdSQeAwFk",
    "name": "Speed-Wash",
    "address": "270 Baker St, Coalinga, CA 93210, USA",
    "city": "Coalinga",
    "state": "CA",
    "zip": "93210",
    "phone": null,
    "website": null,
    "rating": 3.8,
    "review_count": 5,
    "lat": 36.144981,
    "lng": -120.3567441
  },
  {
    "rank": 8,
    "place_id": "ChIJAd0N3UdDk4ARiLwt9Ip2_4M",
    "name": "DG Market",
    "address": "550 E Elm Ave, Coalinga, CA 93210, USA",
    "city": "Coalinga",
    "state": "CA",
    "zip": "93210",
    "phone": "(559) 404-0330",
    "website": "https://www.dollargeneral.com/store-directory/ca/coalinga/13673",
    "rating": 4.1,
    "review_count": 409,
    "lat": 36.1443601,
    "lng": -120.355351
  },
  {
    "rank": 9,
    "place_id": "ChIJXayOqERDk4ARUHU0PmfHuKQ",
    "name": "Save Mart",
    "address": "275 W Forest Ave, Coalinga, CA 93210, USA",
    "city": "Coalinga",
    "state": "CA",
    "zip": "93210",
    "phone": "(559) 935-2997",
    "website": "https://www.savemart.com/stores/786d2a34-3041-4516-9609-b6f858951a02/COALINGA/88/Coalinga",
    "rating": 4.3,
    "review_count": 461,
    "lat": 36.1351581,
    "lng": -120.3607344
  }
]