{
  "cached_at": "2026-02-19T08:29:33.353729",
  "ttl_days": 90,
  "data": {
    "source": "google_maps",
    "search_date": "2026-02-19T08:29:33.353701",
    "industry": "HVAC",
    "location": "Los Angeles",
    "total_found": 84,
    "results": [
      {
        "name": "JW Plumbing, Heating and Air",
        "address": "904 Wall St Suite 203, Los Angeles, CA 90015, USA",
        "phone": "(213) 379-5931",
        "website": "https://jwheatingandair.com/?utm_source=GBP&utm_medium=organic",
        "rating": 4.8,
        "reviews": 2561,
        "place_id": "ChIJk-ouR5THwoAR8ZQODmjB3dg",
        "lat": 34.0384789,
        "lng": -118.2520235,
        "category": "establishment, general_contractor, plumber"
      },
      {
        "name": "Service Champions Plumbing, Heating & AC",
        "address": "5251 W Imperial Hwy, Los Angeles, CA 90045, USA",
        "phone": "(323) 284-1599",
        "website": "https://servicechampions.com/?utm_source=GBP&utm_medium=organic&utm_campaign=la",
        "rating": 4.9,
        "reviews": 667,
        "place_id": "ChIJF6xrKz23woARN3oEzQ4CadE",
        "lat": 33.9312023,
        "lng": -118.3716821,
        "category": "establishment, general_contractor, plumber"
      },
      {
        "name": "Brody Pennell Heating & Air Conditioning",
        "address": "8599 Venice Blvd., Los Angeles, CA 90034, USA",
        "phone": "(310) 896-4911",
        "website": "https://brodypennell.com/?utm_source=gmb&utm_medium=organic&utm_campaign=la",
        "rating": 4.9,
        "reviews": 4625,
        "place_id": "ChIJZ87Dn365woARcqfL59YnyJo",
        "lat": 34.0344336,
        "lng": -118.380145,
        "category": "establishment, general_contractor, point_of_interest"
      },
      {
        "name": "Southwest Heating & Air Conditioning",
        "address": "622 Alpine St, Los Angeles, CA 90012, USA",
        "phone": "(310) 867-0703",
        "website": "http://www.southwesthvac.biz/",
        "rating": 4.8,
        "reviews": 326,
        "place_id": "ChIJVdFBbpPH3IAR__1viQ9xtSI",
        "lat": 34.0634483,
        "lng": -118.2417237,
        "category": "establishment, general_contractor, point_of_interest"
      },
      {
        "name": "LC Heating & Air Conditioning",
        "address": "509 N Fairfax Ave, Los Angeles, CA 90036, USA",
        "phone": "(325) 252-4822",
        "website": "https://lahvaclc.com/",
        "rating": 5,
        "reviews": 197,
        "place_id": "ChIJ_fJ8TdI_vgwRgBgWPbej4O0",
        "lat": 34.0803967,
        "lng": -118.3616153,
        "category": "establishment, general_contractor, point_of_interest"
      },
      {
        "name": "American AC Heat Plumbing",
        "address": "3437 Jack Northrop Ave, Hawthorne, CA 90250, USA",
        "phone": "(310) 494-2552",
        "website": "https://americanairconditioning.com/?utm_source=google&utm_medium=organic&utm_campaign=google-business-profile&utm_content=hawthorne",
        "rating": 4.9,
        "reviews": 3315,
        "place_id": "ChIJn_vLI_O2woARtS2AmLMPrvo",
        "lat": 33.9205512,
        "lng": -118.3330424,
        "category": "establishment, general_contractor, plumber"
      },
      {
        "name": "Service Genius Air Conditioning and Heating",
        "address": "8217 Beverly Blvd #29, Los Angeles, CA 90048, USA",
        "phone": "(310) 359-0260",
        "website": "https://servicegenius.com/los-angeles/?utm_source=organic&utm_medium=organic&utm_campaign=los-angeles&utm_id=gbp",
        "rating": 5,
        "reviews": 450,
        "place_id": "ChIJJ0GBZzS5woARWBB0aIwUImo",
        "lat": 34.0762429,
        "lng": -118.3687695,
        "category": "establishment, general_contractor, point_of_interest"
      },
      {
        "name": "Los Angeles \u2744\ufe0f Air Conditioning Service",
        "address": "506 N Virgil Ave, Los Angeles, CA 90004, USA",
        "phone": "(424) 459-7191",
        "website": "N/A",
        "rating": 4.9,
        "reviews": 132,
        "place_id": "ChIJA9LvEevck4gRxBKjpxTSefs",
        "lat": 34.0797241,
        "lng": -118.2864163,
        "category": "establishment, general_contractor, point_of_interest"
      },
      {
        "name": "HVAC Inspections Los Angeles",
        "address": "1105 6th St, Hermosa Beach, CA 90254, USA",
        "phone": "(310) 465-3822",
        "website": "https://www.hvacinspectionslosangeles.com/?utm_source=google&utm_medium=organic&utm_campaign=gbp",
        "rating": 5,
        "reviews": 113,
        "place_id": "ChIJcTW6IXKFwoARy9h8uLQRYSU",
        "lat": 33.8601294,
        "lng": -118.3877432,
        "category": "electrician, establishment, general_contractor"
      },
      {
        "name": "Pure AIR LA HVAC contractor",
        "address": "1959 Grace Ave #401, Los Angeles, CA 90068, USA",
        "phone": "(213) 296-1315",
        "website": "https://pureairla.com/?utm_source=semrush_local_listings",
        "rating": 4.9,
        "reviews": 78,
        "place_id": "ChIJDbGmAhG10k8RdKadwkHp7vc",
        "lat": 34.106652,
        "lng": -118.3326334,
        "category": "establishment, general_contractor, point_of_interest"
      },
      {
        "name": "Lions Heating & Air Conditioning",
        "address": "9415 Culver Blvd #339, Culver City, CA 90232, USA",
        "phone": "(310) 496-8890",
        "website": "https://lionshvac.com/?utm_campaign=gmb",
        "rating": 4.9,
        "reviews": 220,
        "place_id": "ChIJezpUTzm7woARL_a2R3nWyfQ",
        "lat": 34.0243386,
        "lng": -118.394476,
        "category": "establishment, general_contractor, point_of_interest"
      },
      {
        "name": "Alpha Heating & Air Conditioning",
        "address": "13031 Villosa Pl APT 417, Playa Vista, CA 90094, USA",
        "phone": "(310) 489-7977",
        "website": "https://www.alphaheatingandac.com/",
        "rating": 5,
        "reviews": 165,
        "place_id": "ChIJjwuRy5qwwoARIP4Pq9HHczo",
        "lat": 33.9744614,
        "lng": -118.4243484,
        "category": "establishment, general_contractor, point_of_interest"
      },
      {
        "name": "Affordable HVAC & Wall Heater Repair Los Angeles",
        "address": "160 S Market St, Inglewood, CA 90301, USA",
        "phone": "(424) 788-9925",
        "website": "N/A",
        "rating": 5,
        "reviews": 20,
        "place_id": "ChIJ1xB4zL6x2YgR9aXHiHKgYV8",
        "lat": 33.9622209,
        "lng": -118.3528804,
        "category": "establishment, general_contractor, point_of_interest"
      },
      {
        "name": "LA HVAC SERVICE PRO",
        "address": "642 Nectarine St, Inglewood, CA 90301, USA",
        "phone": "(310) 703-8806",
        "website": "https://marvelous-fudge-9fbc5e.netlify.app/",
        "rating": 5,
        "reviews": 22,
        "place_id": "ChIJPbLN2smFrqsRiNbBVvZMy7M",
        "lat": 33.9595509,
        "lng": -118.3680105,
        "category": "establishment, point_of_interest"
      },
      {
        "name": "A/C Control, Inc",
        "address": "2355 Westwood Blvd #145, Los Angeles, CA 90064, USA",
        "phone": "(310) 943-7400",
        "website": "https://ac-control.com/?id=maps",
        "rating": 4.7,
        "reviews": 293,
        "place_id": "ChIJU-N-l6K7woARKJLMWhRpmig",
        "lat": 34.0411893,
        "lng": -118.4297389,
        "category": "establishment, general_contractor, point_of_interest"
      },
      {
        "name": "Heating Alternatives LLC",
        "address": "3711 Arlington Ave, Los Angeles, CA 90018, USA",
        "phone": "(323) 450-7774",
        "website": "http://www.heatingalt.com/",
        "rating": 5,
        "reviews": 33,
        "place_id": "ChIJtYWHJBe4woARfXYSyzFQR8w",
        "lat": 34.0207527,
        "lng": -118.3179524,
        "category": "establishment, general_contractor, point_of_interest"
      },
      {
        "name": "Belle Air Services",
        "address": "4943 McConnell Ave Suite B, Los Angeles, CA 90066, USA",
        "phone": "(323) 909-6323",
        "website": "https://www.belleairservices.com/?utm_source=google&utm_medium=organic&utm_campaign=GMBListing-Playa-Vista-CA",
        "rating": 4.8,
        "reviews": 90,
        "place_id": "ChIJp4DXN-2xwoARwomOCZ-g9U0",
        "lat": 33.9819735,
        "lng": -118.4248917,
        "category": "establishment, general_contractor, point_of_interest"
      },
      {
        "name": "Dr. Ductless Heating & Cooling",
        "address": "15701 Condon Ave, Lawndale, CA 90260, USA",
        "phone": "(424) 551-2111",
        "website": "https://www.drductless.com/?utm_source=google&utm_medium=organic&utm_campaign=gbplawndale",
        "rating": 4.8,
        "reviews": 118,
        "place_id": "ChIJT1h3Kcm1woAReepTRdcGlRE",
        "lat": 33.8886344,
        "lng": -118.3597805,
        "category": "establishment, general_contractor, point_of_interest"
      },
      {
        "name": "Universal Heating & Air",
        "address": "2260 Maravilla Dr, Los Angeles, CA 90068, USA",
        "phone": "(323) 763-5777",
        "website": "https://universalhvaclosangeles.com/",
        "rating": 4.6,
        "reviews": 371,
        "place_id": "ChIJEfoSUWy7woARHtZ9McSNhtw",
        "lat": 34.1135421,
        "lng": -118.3441944,
        "category": "establishment, general_contractor, point_of_interest"
      },
      {
        "name": "Fuse HVAC & Appliance Repair Los Angeles",
        "address": "6170 Canterbury Dr Ste 124, Culver City, CA 90230, USA",
        "phone": "(213) 510-3004",
        "website": "https://fuselac.com/",
        "rating": 4.9,
        "reviews": 48,
        "place_id": "ChIJIfzJWr63woARODpl21qqc9w",
        "lat": 33.9819296,
        "lng": -118.3848172,
        "category": "establishment, general_contractor, point_of_interest"
      },
      {
        "name": "Appliances, AC, Heating solutions Inc",
        "address": "11775 S La Cienega Blvd apt 2134, Los Angeles, CA 90045, USA",
        "phone": "(310) 219-6487",
        "website": "N/A",
        "rating": 5,
        "reviews": 1,
        "place_id": "ChIJY87k2ZC3woARmRpMYsqwxaw",
        "lat": 33.9277832,
        "lng": -118.3702697,
        "category": "establishment, general_contractor, point_of_interest"
      },
      {
        "name": "Manny's Heating & Air Conditioning",
        "address": "2761 E Slauson Ave, Huntington Park, CA 90255, USA",
        "phone": "(323) 774-4032",
        "website": "http://mannyshvac.com/",
        "rating": 4.9,
        "reviews": 188,
        "place_id": "ChIJlcoTw8nJwoARVGkBtbKRdqc",
        "lat": 33.9894547,
        "lng": -118.2209937,
        "category": "establishment, general_contractor, point_of_interest"
      },
      {
        "name": "Local Air Heating & Cooling Service",
        "address": "525 S Douglas St, El Segundo, CA 90245, USA",
        "phone": "(424) 279-6451",
        "website": "http://localairheatingcoolingservice.com/",
        "rating": 4.7,
        "reviews": 77,
        "place_id": "ChIJc_8l9sa1woARBU4D6O-ao24",
        "lat": 33.908867,
        "lng": -118.3835473,
        "category": "establishment, general_contractor, point_of_interest"
      },
      {
        "name": "Best AC Repair & Install Company",
        "address": "5401 Alvern Cir, Los Angeles, CA 90045, USA",
        "phone": "(424) 276-9647",
        "website": "https://bestacrepairinstallcompany.com/los-angeles/",
        "rating": 4.8,
        "reviews": 69,
        "place_id": "ChIJWdFTDg63woARK--OSAuJJmU",
        "lat": 33.9754396,
        "lng": -118.3746292,
        "category": "establishment, general_contractor, point_of_interest"
      },
      {
        "name": "R&C Heating and Cooling Service",
        "address": "2666 34th St, Santa Monica, CA 90405, USA",
        "phone": "(310) 893-1871",
        "website": "https://www.rchvacservices.com/",
        "rating": 5,
        "reviews": 97,
        "place_id": "ChIJ91fCtNQ1mwoR8l-0oqUfoQQ",
        "lat": 34.0229364,
        "lng": -118.4507866,
        "category": "establishment, general_contractor, point_of_interest"
      },
      {
        "name": "HVAC of Los Angeles",
        "address": "115 W Cesar Estrada Chavez Ave, Los Angeles, CA 90012, USA",
        "phone": "(408) 469-4844",
        "website": "https://hvac-of-los-angeles.ueniweb.com/?utm_campaign=gmb",
        "rating": 5,
        "reviews": 14,
        "place_id": "ChIJAXfvc4HHwoARxS5vuI4Fjhk",
        "lat": 34.0583981,
        "lng": -118.2384826,
        "category": "establishment, general_contractor, point_of_interest"
      },
      {
        "name": "Cloud Comfort HVAC",
        "address": "1732 Border Ave, Torrance, CA 90501, USA",
        "phone": "(424) 226-3457",
        "website": "https://cloudcomforthvac.com/?utm_source=google&utm_medium=organic&utm_campaign=gbp",
        "rating": 4.8,
        "reviews": 593,
        "place_id": "ChIJw_qMF-xL3YARWm12ReIlJvA",
        "lat": 33.8303222,
        "lng": -118.312656,
        "category": "establishment, general_contractor, plumber"
      },
      {
        "name": "Malibu Heating & Air Conditioning",
        "address": "128 Sierra St, El Segundo, CA 90245, USA",
        "phone": "(310) 392-2303",
        "website": "https://www.malibuheatingandair.com/",
        "rating": 5,
        "reviews": 1,
        "place_id": "ChIJnSR7Q0SxwoAR1YkUrd3VOTA",
        "lat": 33.9173491,
        "lng": -118.4086708,
        "category": "establishment, general_contractor, point_of_interest"
      },
      {
        "name": "Home Upgrade Specialist Inc (TESLA, HVAC, ROOF, SOLAR)",
        "address": "8727 W 3rd St #204, Los Angeles, CA 90048, USA",
        "phone": "(844) 516-2426",
        "website": "http://homeupgradespecialist.com/",
        "rating": 4.8,
        "reviews": 89,
        "place_id": "ChIJAQAQxiq_woARMJz1VKuCx-o",
        "lat": 34.0738249,
        "lng": -118.38258,
        "category": "establishment, general_contractor, point_of_interest"
      },
      {
        "name": "Lucky Heating & Air Conditioning",
        "address": "2346 Westwood Blvd #56, Los Angeles, CA 90064, USA",
        "phone": "(424) 263-6191",
        "website": "N/A",
        "rating": 4.9,
        "reviews": 97,
        "place_id": "ChIJzad8bq9eaIgRAI6IncF4V_I",
        "lat": 34.0415023,
        "lng": -118.4294811,
        "category": "establishment, general_contractor, point_of_interest"
      },
      {
        "name": "Los Angeles Air Conditioning And Heating",
        "address": "7900 Airlane Ave, Los Angeles, CA 90045, USA",
        "phone": "(310) 862-6165",
        "website": "http://losangelesairconditioningandheating.site/",
        "rating": 5,
        "reviews": 26,
        "place_id": "ChIJix82hz-3woARLKMb3_IOuOM",
        "lat": 33.9662854,
        "lng": -118.3901655,
        "category": "establishment, general_contractor, point_of_interest"
      },
      {
        "name": "Los Angeles HVAC Repair",
        "address": "4470 Sunset Blvd, Los Angeles, CA 90027, USA",
        "phone": "(818) 280-8168",
        "website": "N/A",
        "rating": 4.9,
        "reviews": 94,
        "place_id": "ChIJJ0B1henHwoARRZH6QMBNMZM",
        "lat": 34.0977297,
        "lng": -118.2871094,
        "category": "establishment, general_contractor, point_of_interest"
      },
      {
        "name": "Hawthorne HVAC Proz",
        "address": "4820 W 142nd St, Hawthorne, CA 90250, USA",
        "phone": "(424) 279-6734",
        "website": "https://hvacproz.net/hawthorne/",
        "rating": 4.9,
        "reviews": 79,
        "place_id": "ChIJ7d9ZdPW1woARRdpxvRCu6Fw",
        "lat": 33.9026339,
        "lng": -118.3621057,
        "category": "establishment, point_of_interest"
      },
      {
        "name": "John & Son HVAC Service",
        "address": "124 W 67th St, Los Angeles, CA 90003, USA",
        "phone": "(424) 330-2313",
        "website": "N/A",
        "rating": 4.9,
        "reviews": 62,
        "place_id": "ChIJATfU1NXJwoARrgJXg_t14NI",
        "lat": 33.9787098,
        "lng": -118.2745312,
        "category": "establishment, general_contractor, point_of_interest"
      },
      {
        "name": "HVAC in LA",
        "address": "7641 Burnet Ave, Van Nuys, CA 91405, USA",
        "phone": "(818) 697-6699",
        "website": "https://www.hvacinla.com/",
        "rating": 5,
        "reviews": 37,
        "place_id": "ChIJa3EyN-iXwoARQkPEJQ42LCA",
        "lat": 34.2097019,
        "lng": -118.4637334,
        "category": "establishment, general_contractor, point_of_interest"
      },
      {
        "name": "AXIS Commercial HVAC Contractors Studio City",
        "address": "13200 Pacific Promenade APT 104, Playa Vista, CA 90094, USA",
        "phone": "(424) 317-3432",
        "website": "N/A",
        "rating": 5,
        "reviews": 14,
        "place_id": "ChIJx064XECxwoAR0EfV8kSJbIc",
        "lat": 33.9707654,
        "lng": -118.4270673,
        "category": "establishment, general_contractor, point_of_interest"
      },
      {
        "name": "Crenshaw Heating and Air Conditioning",
        "address": "3818 Crenshaw Blvd, Los Angeles, CA 90008, USA",
        "phone": "(323) 215-1266",
        "website": "http://crenshawheatingandairconditioning.com/",
        "rating": 4.8,
        "reviews": 27,
        "place_id": "ChIJ9QHHtiL4RIgRJygzmbOjp8U",
        "lat": 34.0167731,
        "lng": -118.3344865,
        "category": "establishment, general_contractor, point_of_interest"
      },
      {
        "name": "Dover Air Condition Repair & Install",
        "address": "10800 S Prairie Ave, Inglewood, CA 90303, USA",
        "phone": "(424) 279-6534",
        "website": "http://doverairconditionrepairinstall.com/",
        "rating": 4.8,
        "reviews": 85,
        "place_id": "ChIJYaXV2123woARrIvmXYW9qOY",
        "lat": 33.9374559,
        "lng": -118.3436152,
        "category": "establishment, general_contractor, point_of_interest"
      },
      {
        "name": "Mar Vista Heating and Air",
        "address": "3232 Grand View Blvd, Los Angeles, CA 90066, USA",
        "phone": "(424) 329-2198",
        "website": "http://marvistaheatingandair.com/",
        "rating": 5,
        "reviews": 27,
        "place_id": "ChIJsQsU1olXL4cR7bwOJKO8px0",
        "lat": 34.0162506,
        "lng": -118.4404367,
        "category": "establishment, general_contractor, point_of_interest"
      },
      {
        "name": "Around the Clock Heating and Air Conditioning, Inc.",
        "address": "1123 Lillian Way, Los Angeles, CA 90038, USA",
        "phone": "(310) 274-5525",
        "website": "http://aroundclock.com/",
        "rating": 4.8,
        "reviews": 226,
        "place_id": "ChIJY_09nfO-woARyl0hq9Svyh0",
        "lat": 34.0914514,
        "lng": -118.3280216,
        "category": "establishment, general_contractor, point_of_interest"
      },
      {
        "name": "Pacific Heating & AC Repair",
        "address": "930 Selby St, El Segundo, CA 90245, USA",
        "phone": "(424) 502-5090",
        "website": "N/A",
        "rating": 5,
        "reviews": 36,
        "place_id": "ChIJT60Fhnz-84gRlibFxPLEYGI",
        "lat": 33.9292326,
        "lng": -118.3937633,
        "category": "establishment, general_contractor, point_of_interest"
      },
      {
        "name": "HVAC Air Duct Cleaning and Repair",
        "address": "10789 Ohio Ave #3, Los Angeles, CA 90024, USA",
        "phone": "(213) 519-8066",
        "website": "https://www.hvacprocleaning.com/",
        "rating": 4.9,
        "reviews": 96,
        "place_id": "ChIJG_kP6pKVxkcRH7mtcUzAZvo",
        "lat": 34.0557178,
        "lng": -118.4385911,
        "category": "car_repair, establishment, general_contractor"
      },
      {
        "name": "LA HVAC Pro",
        "address": "5460 Sierra Vista Ave, Los Angeles, CA 90038, USA",
        "phone": "(213) 290-9201",
        "website": "http://losangeles-heatingairconditioning.com/about-us/",
        "rating": 4.9,
        "reviews": 51,
        "place_id": "ChIJVVVJf7K4woARxuUX4bXWFCk",
        "lat": 34.0892001,
        "lng": -118.3111947,
        "category": "establishment, general_contractor, point_of_interest"
      },
      {
        "name": "Air Tech 24 Heating and Air Conditioning",
        "address": "20617 Amie Ave #15, Torrance, CA 90503, USA",
        "phone": "(310) 921-0115",
        "website": "https://airtech24.com/",
        "rating": 4.9,
        "reviews": 388,
        "place_id": "ChIJq6rOjda0woAR_H5mcUtwYgk",
        "lat": 33.8425787,
        "lng": -118.3496876,
        "category": "establishment, general_contractor, point_of_interest"
      },
      {
        "name": "Top HVAC",
        "address": "126 W 111th St, Los Angeles, CA 90061, USA",
        "phone": "(213) 649-2036",
        "website": "http://cdyhvacinc.shop/",
        "rating": 4.8,
        "reviews": 106,
        "place_id": "ChIJL3faHsPLwoARp9JksVcSnC8",
        "lat": 33.9346063,
        "lng": -118.2749783,
        "category": "establishment, general_contractor, point_of_interest"
      },
      {
        "name": "Green Air Conditioning & Heating Los Angeles",
        "address": "11308 Hawthorne Blvd, Inglewood, CA 90304, USA",
        "phone": "(424) 266-7621",
        "website": "N/A",
        "rating": 4.7,
        "reviews": 18,
        "place_id": "ChIJPfENXwzY3IARZZGmhDyiIYo",
        "lat": 33.9315333,
        "lng": -118.3523671,
        "category": "establishment, general_contractor, point_of_interest"
      },
      {
        "name": "Reliable Home Comfort",
        "address": "1214 W 130th St, Compton, CA 90222, USA",
        "phone": "(562) 568-5345",
        "website": "https://www.rhcair.com/?utm_source=gbp&utm_medium=organic&utm_campaign=website",
        "rating": 5,
        "reviews": 253,
        "place_id": "ChIJD4uWqmPLwoARrk7ORMdJrzk",
        "lat": 33.9138392,
        "lng": -118.2449664,
        "category": "electrician, establishment, general_contractor"
      },
      {
        "name": "Controlled Comfort",
        "address": "4633 Marine Ave UNIT 231, Lawndale, CA 90260, USA",
        "phone": "(310) 387-3310",
        "website": "https://www.controlled-comfort.com/",
        "rating": 5,
        "reviews": 78,
        "place_id": "ChIJZ7yPpmW1woARvv7-CdCWG40",
        "lat": 33.8952284,
        "lng": -118.3584078,
        "category": "establishment, general_contractor, point_of_interest"
      },
      {
        "name": "HVAC Contractors Los Angeles",
        "address": "464 N Fairfax Ave, Los Angeles, CA 90036, USA",
        "phone": "(213) 642-2471",
        "website": "https://www.hvaccontractorslosangeles.net/",
        "rating": 4.9,
        "reviews": 28,
        "place_id": "ChIJS2dbn6cvjoARVI5YNjcDjZM",
        "lat": 34.0799203,
        "lng": -118.3611276,
        "category": "establishment, general_contractor, point_of_interest"
      },
      {
        "name": "One Hour HVAC Los Angeles",
        "address": "416 E Washington Blvd unit a, Los Angeles, CA 90015, USA",
        "phone": "(213) 657-5303",
        "website": "N/A",
        "rating": 5,
        "reviews": 23,
        "place_id": "ChIJl0fe07nHwoARGWJ13BqrX4o",
        "lat": 34.0280605,
        "lng": -118.2607837,
        "category": "establishment, general_contractor, point_of_interest"
      },
      {
        "name": "Precise Air Systems Inc.",
        "address": "5467 W San Fernando Rd, Los Angeles, CA 90039, USA",
        "phone": "(818) 240-1737",
        "website": "https://www.preciseairsystems.com/?utm_source=google&utm_medium=organic&utm_campaign=gbp",
        "rating": 4.9,
        "reviews": 438,
        "place_id": "ChIJFScWqULAwoARl31tmuvKhBs",
        "lat": 34.1523738,
        "lng": -118.2761645,
        "category": "establishment, general_contractor, point_of_interest"
      },
      {
        "name": "Best HVAC Service",
        "address": "10331 Regent St, Los Angeles, CA 90034, USA",
        "phone": "(424) 220-8602",
        "website": "N/A",
        "rating": 4.8,
        "reviews": 25,
        "place_id": "ChIJ_Sxmt5-7woARVf6nuQWb_xQ",
        "lat": 34.0233231,
        "lng": -118.4050764,
        "category": "establishment, general_contractor, point_of_interest"
      },
      {
        "name": "Total Home Environmental HVAC",
        "address": "1423 Marcelina Ave #1, Torrance, CA 90501, USA",
        "phone": "(310) 361-3934",
        "website": "https://www.totalhomeenvironmental.com/schedule-service?utm_campaign=gmb&utm_medium=organic&utm_source=gbp",
        "rating": 4.8,
        "reviews": 416,
        "place_id": "ChIJD2WCujZL3YARxycmb7jRvQA",
        "lat": 33.8338917,
        "lng": -118.3156332,
        "category": "establishment, general_contractor, point_of_interest"
      },
      {
        "name": "California Air Conditioning Systems",
        "address": "25217 Narbonne Ave, Lomita, CA 90717, USA",
        "phone": "(310) 530-0504",
        "website": "https://www.californiaac.com/preventativemaintenance.php",
        "rating": 4.6,
        "reviews": 202,
        "place_id": "ChIJGw5FBGdK3YAR954b2ClaOUU",
        "lat": 33.79539,
        "lng": -118.32038,
        "category": "establishment, general_contractor, point_of_interest"
      },
      {
        "name": "Mr Heat and Cooling",
        "address": "1904 S Grand Ave, Los Angeles, CA 90007, USA",
        "phone": "(855) 231-3997",
        "website": "http://mr-heatandcooling.com/",
        "rating": 5,
        "reviews": 42,
        "place_id": "ChIJTd4t9MnHwoARB9g6tBPumNQ",
        "lat": 34.0320296,
        "lng": -118.268148,
        "category": "establishment, general_contractor, point_of_interest"
      },
      {
        "name": "Los Angeles Air Department",
        "address": "14671 Titus St, Panorama City, CA 91402, USA",
        "phone": "(818) 222-8484",
        "website": "https://laairdept.com/",
        "rating": 4.9,
        "reviews": 399,
        "place_id": "ChIJKf55jmeXwoARK7_l4XVHs5s",
        "lat": 34.2200219,
        "lng": -118.4529942,
        "category": "establishment, general_contractor, point_of_interest"
      },
      {
        "name": "So Cal Plumbing Heating & Air Conditioning",
        "address": "4811 Darien St, Torrance, CA 90503, USA",
        "phone": "(310) 686-0777",
        "website": "https://socalphac.com/",
        "rating": 4.9,
        "reviews": 197,
        "place_id": "ChIJ2aV9YB-1woARj-ndHj9kcto",
        "lat": 33.8530812,
        "lng": -118.3610134,
        "category": "establishment, general_contractor, plumber"
      },
      {
        "name": "Stay Cool Heating & Air",
        "address": "943 E 31st St, Los Angeles, CA 90011, USA",
        "phone": "(213) 668-7695",
        "website": "https://staycoolsocal.com/",
        "rating": 4.6,
        "reviews": 40,
        "place_id": "ChIJWeec8Xm5woARQRSDJ3166gk",
        "lat": 34.0155945,
        "lng": -118.2583714,
        "category": "establishment, general_contractor, point_of_interest"
      },
      {
        "name": "Blizzard Air Conditioning & Heating",
        "address": "6400 E Washington Blvd, Commerce, CA 90040, USA",
        "phone": "(855) 936-5222",
        "website": "https://blizzardairconditioning.com/",
        "rating": 4.9,
        "reviews": 129,
        "place_id": "ChIJWROIQgnPwoARydu0YDL1Alk",
        "lat": 33.9955509,
        "lng": -118.1398932,
        "category": "establishment, general_contractor, point_of_interest"
      },
      {
        "name": "University Park Heating and Air Conditioning",
        "address": "2300 1/2 S Union Ave, Los Angeles, CA 90007, USA",
        "phone": "(949) 239-0307",
        "website": "http://university-parkheatingandairconditioning.com/",
        "rating": 4.8,
        "reviews": 42,
        "place_id": "ChIJKys-hQOV0ocRwDqCH0gY0tM",
        "lat": 34.03467970000001,
        "lng": -118.2834341,
        "category": "establishment, general_contractor, point_of_interest"
      },
      {
        "name": "Air Max HVAC Inc.",
        "address": "3000 Floyd St, Burbank, CA 91504, USA",
        "phone": "(747) 319-4460",
        "website": "https://airmaxexperts.com/",
        "rating": 4.9,
        "reviews": 506,
        "place_id": "ChIJn25_2AaVwoAR0idM24BskH8",
        "lat": 34.2009028,
        "lng": -118.3432967,
        "category": "general_contractor, point_of_interest, establishment"
      },
      {
        "name": "Marathon Plumbing, Heating and AC Repair",
        "address": "9826 Painter Ave, Whittier, CA 90605, USA",
        "phone": "(626) 691-9675",
        "website": "https://www.marathonhvac.com/?utm_source=google&utm_medium=organic&utm_campaign=gbp_whittier_hvac_local&utm_term=authentic_nonsense",
        "rating": 4.9,
        "reviews": 420,
        "place_id": "ChIJ0bSpkw7EwoARQgt6Aqiztes",
        "lat": 33.9477523,
        "lng": -118.0475838,
        "category": "general_contractor, point_of_interest, establishment"
      },
      {
        "name": "Air Plus HVAC, Inc.",
        "address": "7344 Hinds Ave, North Hollywood, CA 91605, USA",
        "phone": "(213) 715-5235",
        "website": "https://airplus-hvac.com/?utm_source=gbp&utm_medium=organic",
        "rating": 4.9,
        "reviews": 157,
        "place_id": "ChIJLR6AIwbAwoARbbiM7dh6PZY",
        "lat": 34.2043003,
        "lng": -118.3907036,
        "category": "general_contractor, point_of_interest, establishment"
      },
      {
        "name": "Air-Tech Air Conditioning & Heating, Inc.",
        "address": "204 S Rosemead Blvd, Pasadena, CA 91107, USA",
        "phone": "(626) 795-8880",
        "website": "https://www.airtechac.com/?utm_source=google&utm_medium=organic&utm_campaign=gbp",
        "rating": 4.9,
        "reviews": 838,
        "place_id": "ChIJ3RLPRnrbwoARVXa8gXOADI4",
        "lat": 34.1427868,
        "lng": -118.0731069,
        "category": "general_contractor, point_of_interest, establishment"
      },
      {
        "name": "Air Max HVAC Inc.",
        "address": "9465 Wilshire Blvd Suite 300, Beverly Hills, CA 90212, USA",
        "phone": "(424) 600-8386",
        "website": "https://airmaxexperts.com/beverly-hills-ca/",
        "rating": 4.8,
        "reviews": 141,
        "place_id": "ChIJ34Gm2Pi7woAR33yDPE7aBAc",
        "lat": 34.0673213,
        "lng": -118.3998215,
        "category": "general_contractor, point_of_interest, establishment"
      },
      {
        "name": "HVAC Contractor - American Cool and Heat",
        "address": "1349 N Columbus Ave, Glendale, CA 91202, USA",
        "phone": "(818) 722-8634",
        "website": "https://americancoolandheat.com/",
        "rating": 4.9,
        "reviews": 61,
        "place_id": "ChIJjYgX6jfAwoARFteLmOwzeTQ",
        "lat": 34.1664781,
        "lng": -118.2628427,
        "category": "general_contractor, point_of_interest, establishment"
      },
      {
        "name": "Fixie HVAC",
        "address": "612 S New Hampshire Ave, Los Angeles, CA 90005, USA",
        "phone": "(424) 208-0196",
        "website": "https://fixie-hvac.ueniweb.com/?utm_campaign=gmb",
        "rating": 5,
        "reviews": 19,
        "place_id": "ChIJjYihZh_HwoARIMb3Xwz1_oc",
        "lat": 34.0632383,
        "lng": -118.2928069,
        "category": "general_contractor, point_of_interest, establishment"
      },
      {
        "name": "Precision HVAC Repair Los Angeles",
        "address": "122 S Mariposa Ave, Los Angeles, CA 90004, USA",
        "phone": "(323) 746-0799",
        "website": "https://hvacrepairlosangeles1.com/",
        "rating": 5,
        "reviews": 28,
        "place_id": "ChIJJ71d7wbHwoARIoKhvPXsXeE",
        "lat": 34.0720538,
        "lng": -118.2991381,
        "category": "general_contractor, point_of_interest, establishment"
      },
      {
        "name": "Southwest HVAC",
        "address": "11265 Woodruff Ave, Downey, CA 90241, USA",
        "phone": "(562) 425-4822",
        "website": "http://southwesthvac.com/",
        "rating": 4.9,
        "reviews": 309,
        "place_id": "ChIJ0yj7sX7NwoAR7FdCPkAHLmM",
        "lat": 33.93074530000001,
        "lng": -118.1177558,
        "category": "general_contractor, point_of_interest, establishment"
      },
      {
        "name": "786 HVAC Sherman Oaks CA",
        "address": "14529 Dickens St, Sherman Oaks, CA 91403, USA",
        "phone": "(747) 319-8758",
        "website": "N/A",
        "rating": 5,
        "reviews": 17,
        "place_id": "ChIJy4c6yReXwoARdZz9tMmrm6Y",
        "lat": 34.1503367,
        "lng": -118.4499457,
        "category": "general_contractor, point_of_interest, establishment"
      },
      {
        "name": "Studio City Air Conditioning",
        "address": "13052 Bloomfield St, Studio City, CA 91604, USA",
        "phone": "(747) 837-7697",
        "website": "N/A",
        "rating": 4.9,
        "reviews": 40,
        "place_id": "ChIJ95OBD82XwoAR3EdsdDSEK5o",
        "lat": 34.1491285,
        "lng": -118.417813,
        "category": "general_contractor, point_of_interest, establishment"
      },
      {
        "name": "Supreme HVAC Repair Arcadia CA",
        "address": "127 La Porte St g, Arcadia, CA 91006, USA",
        "phone": "(626) 275-9370",
        "website": "N/A",
        "rating": 5,
        "reviews": 29,
        "place_id": "ChIJJ1MIWr_bwoARNYVFTFYcLBc",
        "lat": 34.1448119,
        "lng": -118.0272733,
        "category": "general_contractor, point_of_interest, establishment"
      },
      {
        "name": "Finest Heating & Air",
        "address": "113 N San Vicente Blvd ste 213, Beverly Hills, CA 90211, USA",
        "phone": "(424) 512-1232",
        "website": "https://finestheatingnair.com/locations/hvac-contractors-beverly-hills/",
        "rating": 5,
        "reviews": 24,
        "place_id": "ChIJ2Tdm1l25woARP1p2nAZ2zlI",
        "lat": 34.0656253,
        "lng": -118.3737391,
        "category": "general_contractor, point_of_interest, establishment"
      },
      {
        "name": "So Cal Air",
        "address": "440 W Dryden St, Glendale, CA 91202, USA",
        "phone": "(818) 471-6022",
        "website": "http://www.socalair.co/",
        "rating": 5,
        "reviews": 268,
        "place_id": "ChIJzwJTG0HBwoARp_6xYbp6Hl0",
        "lat": 34.1606498,
        "lng": -118.2633746,
        "category": "general_contractor, point_of_interest, establishment"
      },
      {
        "name": "Elite Comfort HVAC Los Angeles",
        "address": "12405 Venice Blvd. #138, Los Angeles, CA 90066, USA",
        "phone": "(424) 483-7089",
        "website": "N/A",
        "rating": 4.9,
        "reviews": 35,
        "place_id": "ChIJp7DZvle7woARwLIVL6-ByTQ",
        "lat": 34.0038979,
        "lng": -118.4341526,
        "category": "general_contractor, point_of_interest, establishment"
      },
      {
        "name": "NexGen HVAC & Plumbing",
        "address": "2367 W 208th St Unit D6, Torrance, CA 90501, USA",
        "phone": "(310) 340-0850",
        "website": "https://nexgenairandplumbing.com/locations/torrance/?utm_campaign=gmb-listing-torrance&utm_source=google&utm_medium=organic",
        "rating": 4.6,
        "reviews": 577,
        "place_id": "ChIJ_XWUBA21woAR0Dow7TtlAok",
        "lat": 33.8445471,
        "lng": -118.3259673,
        "category": "plumber, electrician, general_contractor"
      },
      {
        "name": "Downey Comfort HVAC Pros",
        "address": "7901 Florence Ave, Downey, CA 90240, USA",
        "phone": "(562) 635-6057",
        "website": "http://downeycomforthvacpros.com/",
        "rating": 5,
        "reviews": 41,
        "place_id": "ChIJt8ry4efNwoARNi3CTpaPyhA",
        "lat": 33.954846,
        "lng": -118.130748,
        "category": "general_contractor, point_of_interest, establishment"
      },
      {
        "name": "Superior La Habra HVAC Repair",
        "address": "1591 W Whittier Blvd, La Habra, CA 90631, USA",
        "phone": "(562) 589-3547",
        "website": "https://superiorlahabrahvacrepair.com/",
        "rating": 5,
        "reviews": 21,
        "place_id": "ChIJNXvYslnVwoARG-o5oc9lMrc",
        "lat": 33.9402474,
        "lng": -117.963673,
        "category": "general_contractor, point_of_interest, establishment"
      },
      {
        "name": "Duarte Heating & Air Conditioning",
        "address": "1800 Highland Ave, Duarte, CA 91010, USA",
        "phone": "(626) 470-6107",
        "website": "http://duarte-ac-repair.com/",
        "rating": 5,
        "reviews": 64,
        "place_id": "ChIJ9ZK3wOvH5YcRYhF5x9d2fxY",
        "lat": 34.1328361,
        "lng": -117.9655505,
        "category": "general_contractor, point_of_interest, establishment"
      },
      {
        "name": "Aryco HVAC",
        "address": "140 E Palm Ave, Monrovia, CA 91016, USA",
        "phone": "(626) 559-0990",
        "website": "https://arycohvac.com/",
        "rating": 4.9,
        "reviews": 255,
        "place_id": "ChIJjdmSgUrZwoARtnglRoy-9cc",
        "lat": 34.1489526,
        "lng": -117.9993494,
        "category": "general_contractor, point_of_interest, establishment"
      },
      {
        "name": "NexGen HVAC & Plumbing",
        "address": "5441 Cogswell Rd Unit F, Arcadia, CA 91006, USA",
        "phone": "(626) 602-9437",
        "website": "https://nexgenairandplumbing.com/locations/arcadia/?utm_campaign=gmb-listing-arcadia&utm_source=google&utm_medium=organic",
        "rating": 4.7,
        "reviews": 541,
        "place_id": "ChIJ7aZ7sSbZwoARIYq45a4dOSk",
        "lat": 34.0984652,
        "lng": -118.0010949,
        "category": "electrician, plumber, general_contractor"
      },
      {
        "name": "METRIC HVAC",
        "address": "10313 Faywood St, Bellflower, CA 90706, USA",
        "phone": "(866) 920-8182",
        "website": "http://www.metric-hvac.com/",
        "rating": 4.9,
        "reviews": 80,
        "place_id": "ChIJjdJEq83NwoARtF39GX2GGlA",
        "lat": 33.8977947,
        "lng": -118.1148702,
        "category": "general_contractor, point_of_interest, establishment"
      },
      {
        "name": "Elite HVAC",
        "address": "6939 Baird Ave, Reseda, CA 91335, USA",
        "phone": "(818) 305-5575",
        "website": "https://elitehvac.us/",
        "rating": 5,
        "reviews": 6,
        "place_id": "ChIJDz2OUwqZwoARidDmxVvGPl8",
        "lat": 34.1967328,
        "lng": -118.5375988,
        "category": "general_contractor, point_of_interest, establishment"
      },
      {
        "name": "American Standard HVAC Service",
        "address": "18054 Ventura Blvd, Tarzana, CA 91356, USA",
        "phone": "(844) 734-2822",
        "website": "http://americanstandardhvacservice.com/",
        "rating": 4.9,
        "reviews": 71,
        "place_id": "ChIJ9cpBZBOZwoAR5wEpIqN0ut8",
        "lat": 34.1648935,
        "lng": -118.5263265,
        "category": "general_contractor, point_of_interest, establishment"
      }
    ]
  }
}